,City,Cloudiness,Country,Date,Humidity,Lat,Lng,Max Temp,Wind Speed
0,Bereket,0,TM,1589596155,41,39.24,55.52,67.15,1.68
1,Naze,75,JP,1589596155,78,28.37,129.48,82.4,16.11
2,Kasulu,40,TZ,1589596155,88,-4.58,30.1,71.6,1.34
3,Boa Vista,87,BR,1589596155,74,2.82,-60.67,80.6,10.29
4,Bengkulu,30,ID,1589596155,67,-3.8,102.27,84.7,2.71
5,Hilo,75,US,1589596097,61,19.73,-155.09,82.4,12.75
6,Kapaa,20,US,1589595968,74,22.08,-159.32,80.6,10.29
7,Puerto Ayora,73,EC,1589596156,92,-0.74,-90.35,75.0,1.01
8,Hermanus,77,ZA,1589596156,78,-34.42,19.23,54.0,1.01
9,Cap Malheureux,1,MU,1589596156,81,-19.98,57.61,71.01,4.0
10,Bolu Province,71,TR,1589596156,37,40.67,31.58,67.1,4.23
11,Springbok,0,ZA,1589596156,82,-29.66,17.89,45.75,6.33
12,Rolla,1,US,1589596156,88,37.95,-91.77,64.99,6.93
13,Noumea,75,NC,1589596157,78,-22.28,166.46,75.0,20.8
14,Ushuaia,75,AR,1589595999,80,-54.8,-68.3,41.0,5.82
15,Chokurdakh,0,RU,1589596157,95,70.63,147.92,32.29,13.33
16,Busselton,29,AU,1589596157,39,-33.65,115.33,62.01,10.36
17,Mount Isa,0,AU,1589596157,24,-20.73,139.5,80.6,12.75
18,Lagoa,100,PT,1589596157,92,39.05,-27.98,63.68,8.81
19,Rikitea,91,PF,1589596157,84,-23.12,-134.97,74.7,21.59
20,Cessnock,52,AU,1589596157,78,-32.83,151.35,68.0,5.19
21,Port Hardy,90,CA,1589596157,51,50.7,-127.42,59.0,11.41
22,Barrow,90,US,1589596158,86,71.29,-156.79,28.4,19.46
23,Albany,100,US,1589596158,88,42.6,-73.97,63.0,8.84
24,Lobão,0,PT,1589596158,72,40.99,-8.49,60.8,5.82
25,Ribeira Grande,98,PT,1589596158,89,38.52,-28.7,64.04,12.68
26,Menongue,0,AO,1589596159,47,-14.66,17.69,50.88,1.63
27,Carauari,100,BR,1589596159,96,-4.88,-66.9,74.1,2.82
28,Nikolskoye,100,RU,1589596160,92,59.7,30.79,35.6,2.24
29,Vaini,40,TO,1589596160,65,-21.2,-175.2,80.6,11.41
30,Somerset,90,US,1589596160,44,40.57,-74.55,78.8,4.7
31,Bredasdorp,70,ZA,1589596160,81,-34.53,20.04,46.4,2.24
32,San Antonio,90,US,1589596160,78,29.42,-98.49,84.0,17.22
33,Muros,0,ES,1589596160,71,42.78,-9.06,53.01,7.0
34,Asău,41,RO,1589596161,76,46.43,26.4,52.0,11.41
35,Kahului,40,US,1589596161,58,20.89,-156.47,84.2,21.92
36,Lebu,100,CL,1589596161,94,-37.62,-73.65,55.8,4.43
37,Teguise,20,ES,1589596162,68,29.06,-13.56,66.2,11.41
38,Atuona,0,PF,1589596162,69,-9.8,-139.03,81.37,11.43
39,Mataura,0,NZ,1589596162,58,-46.19,168.86,55.44,1.12
40,Katangli,100,RU,1589596162,88,51.71,143.23,41.56,3.98
41,Caravelas,100,BR,1589596162,92,-17.71,-39.25,73.72,5.01
42,Angoram,91,PG,1589596162,54,-4.06,144.07,91.83,3.31
43,Saldanha,100,ZA,1589596162,87,-33.01,17.94,48.2,3.36
44,Kununurra,100,AU,1589596163,23,-15.77,128.73,84.2,11.41
45,Castro,2,BR,1589596163,94,-24.79,-50.01,52.11,1.88
46,Harper,42,LR,1589596163,87,4.38,-7.72,79.92,7.96
47,Isangel,75,VU,1589596164,69,-19.55,169.27,78.8,9.17
48,Dikson,98,RU,1589596164,95,73.51,80.55,30.2,12.01
49,Kiruna,100,SE,1589596164,74,67.86,20.23,30.2,9.17
50,Tsimmerbude,40,RU,1589596164,81,54.67,20.13,46.4,13.42
51,Banda Aceh,100,ID,1589596165,80,5.56,95.32,83.07,6.44
52,Point Pedro,100,LK,1589596165,75,9.82,80.23,85.95,6.55
53,Rocha,5,UY,1589596165,62,-34.48,-54.33,57.94,14.25
54,Pevek,0,RU,1589596166,95,69.7,170.31,31.17,3.22
55,Bonavista,71,CA,1589596166,87,48.65,-53.11,35.01,10.0
56,Khovd,100,MN,1589596166,28,48.01,91.64,64.08,2.26
57,Thompson,40,CA,1589596166,30,55.74,-97.86,42.8,3.36
58,Grindavik,0,IS,1589596166,64,63.84,-22.43,35.6,8.05
59,Kumul,0,CN,1589596166,13,42.8,93.45,85.06,18.19
60,Viedma,95,AR,1589596167,55,-40.81,-63.0,65.62,11.65
61,Sept-Îles,75,CA,1589595907,60,50.2,-66.38,43.0,5.82
62,Tasiilaq,100,GL,1589596167,69,65.61,-37.64,33.8,13.87
63,New Norfolk,43,AU,1589596167,73,-42.78,147.06,57.99,4.0
64,Gatton,75,AU,1589596167,46,-27.55,152.28,73.4,13.87
65,Punta Arenas,90,CL,1589595872,93,-53.15,-70.92,41.0,8.05
66,Mandalgovi,0,MN,1589596168,54,45.76,106.27,39.72,27.83
67,Poum,0,NC,1589596168,69,-20.23,164.02,75.0,8.95
68,Hobyo,6,SO,1589596168,77,5.35,48.53,82.36,21.45
69,Pailón,98,BO,1589596168,82,-17.65,-62.75,60.8,6.93
70,Novyy Urgal,0,RU,1589596168,33,51.07,132.56,61.38,6.8
71,Ondjiva,0,AO,1589596168,36,-17.07,15.73,58.05,5.46
72,Cabo San Lucas,5,MX,1589596169,44,22.89,-109.91,78.8,5.82
73,Kiryat Gat,60,IL,1589596169,56,31.61,34.76,80.01,5.82
74,Bethel,90,US,1589596169,88,41.37,-73.41,66.0,9.17
75,Alvand,0,IR,1589596169,54,36.32,49.17,48.54,3.18
76,Kavieng,17,PG,1589596170,78,-2.57,150.8,85.42,15.64
77,Clyde River,90,CA,1589596170,100,70.47,-68.59,17.6,9.17
78,Yulara,0,AU,1589596170,27,-25.24,130.99,62.6,12.75
79,Talnakh,15,RU,1589596170,69,69.49,88.4,37.4,15.66
80,Rawson,100,AR,1589596170,53,-43.3,-65.1,66.9,15.84
81,Yellowknife,90,CA,1589595976,84,62.46,-114.35,32.0,4.7
82,Geraldton,91,AU,1589596171,64,-28.77,114.6,68.0,9.17
83,Sørland,100,NO,1589596171,79,67.67,12.69,37.53,30.02
84,Nyurba,28,RU,1589596171,46,63.28,118.33,59.4,3.42
85,Khoy,0,IR,1589596172,50,38.55,44.95,59.7,2.73
86,Bluff,35,NZ,1589596173,75,-46.6,168.33,53.2,8.57
87,Port Elizabeth,35,ZA,1589596173,72,-33.92,25.57,59.0,11.41
88,Thongwa,20,MM,1589596173,70,16.76,96.53,87.8,3.36
89,Bubaque,0,GW,1589596173,76,11.28,-15.83,78.96,15.03
90,Naantali,90,FI,1589596173,100,60.47,22.02,37.4,3.36
91,Puerto Madryn,90,AR,1589596171,52,-42.77,-65.04,67.48,14.16
92,Puerto Baquerizo Moreno,15,EC,1589596173,88,-0.9,-89.6,74.08,7.99
93,Karaton,20,ID,1589596173,66,-6.34,106.1,86.0,4.7
94,Mar del Plata,0,AR,1589596173,87,-38.0,-57.56,57.99,11.41
95,Rørvik,100,NO,1589596174,70,64.86,11.24,40.28,22.59
96,Ahipara,30,NZ,1589596174,72,-35.17,173.17,63.97,8.81
97,Qaanaaq,0,GL,1589596174,92,77.48,-69.36,23.02,1.54
98,Pontian Kecil,40,MY,1589596174,79,1.48,103.39,88.0,4.7
99,Barranca,13,PE,1589596048,88,-10.75,-77.77,64.29,5.37
100,Takāb,0,IR,1589596175,54,36.4,47.11,50.61,1.68
101,Hobart,12,AU,1589596022,44,-42.88,147.33,61.0,17.22
102,Mount Gambier,0,AU,1589596175,58,-37.83,140.77,57.2,11.41
103,Whitehorse,75,CA,1589596175,93,60.72,-135.05,48.0,8.05
104,Butaritari,99,KI,1589596175,75,3.07,172.79,83.43,7.38
105,Kaura Namoda,43,NG,1589596175,56,12.59,6.58,82.87,9.66
106,Severo-Kuril'sk,86,RU,1589596175,81,50.68,156.12,38.37,4.43
107,Port Alfred,26,ZA,1589596176,79,-33.59,26.89,57.99,5.99
108,Moerai,2,PF,1589596176,84,-22.43,-151.33,80.4,15.01
109,Jamestown,90,US,1589595991,100,42.1,-79.24,59.0,8.05
110,Dunedin,0,NZ,1589595939,50,-45.87,170.5,59.0,8.01
111,Huercal Overa,42,ES,1589596176,89,37.39,-1.95,53.01,3.0
112,Curup,57,ID,1589596176,62,-3.47,102.53,80.31,3.65
113,Hithadhoo,100,MV,1589596177,74,-0.6,73.08,84.81,18.77
114,East London,69,ZA,1589596177,65,-33.02,27.91,62.4,16.82
115,Bousso,84,TD,1589596177,43,10.48,16.71,87.37,7.36
116,Provideniya,0,RU,1589596177,59,64.38,-173.3,43.77,12.08
117,Gore,0,NZ,1589596178,59,-46.1,168.94,54.61,0.94
118,Tuktoyaktuk,90,CA,1589596178,92,69.45,-133.04,24.8,18.34
119,Litovko,83,RU,1589596178,58,49.24,135.17,63.0,7.74
120,Bariloche,40,AR,1589596083,67,-41.15,-71.31,57.99,39.15
121,Bambous Virieux,20,MU,1589596178,93,-20.34,57.76,71.01,5.82
122,Chui,52,UY,1589596178,72,-33.7,-53.46,55.38,12.44
123,Tocopilla,5,CL,1589596178,58,-22.09,-70.2,65.19,3.27
124,Vao,23,NC,1589596178,76,-22.67,167.48,72.19,16.91
125,Uvinza,29,TZ,1589596178,91,-5.1,30.39,64.9,1.39
126,Mahébourg,20,MU,1589596179,93,-20.41,57.7,66.2,5.82
127,Thinadhoo,79,MV,1589596179,75,0.53,72.93,84.56,18.32
128,Kanniyākumāri,100,IN,1589596179,78,8.08,77.57,83.07,21.92
129,São Félix do Xingu,98,BR,1589596180,86,-6.64,-51.99,74.23,2.08
130,Mossamedes,0,AO,1589596180,64,-15.2,12.15,74.1,5.26
131,Paramonga,17,PE,1589596180,86,-10.67,-77.83,65.53,5.84
132,Khatanga,68,RU,1589596180,88,71.97,102.5,34.88,10.38
133,Ancud,90,CL,1589596180,100,-41.87,-73.82,60.01,13.87
134,Aleksandrov Gay,25,RU,1589596180,83,50.15,48.57,45.41,10.13
135,Ulaangom,100,MN,1589596180,34,49.98,92.07,60.3,3.76
136,Falmouth,70,GB,1589596092,87,50.15,-5.07,48.0,8.05
137,Ostrovnoy,100,RU,1589596181,89,68.05,39.51,34.5,4.23
138,Comodoro Rivadavia,100,AR,1589596182,59,-45.87,-67.5,64.4,25.28
139,Visaginas,50,LT,1589596182,85,55.6,26.42,39.58,9.75
140,Maceió,20,BR,1589596158,88,-9.67,-35.74,77.0,2.24
141,Ahar,0,IR,1589596182,74,38.48,47.07,52.59,0.29
142,Saint Paul Harbor,90,US,1589596183,87,57.79,-152.41,46.4,17.22
143,Lata,0,PT,1589596183,80,40.16,-8.33,62.01,7.0
144,George Town,20,MY,1589596035,88,5.41,100.34,84.2,2.24
145,Oranjestad,20,AW,1589596183,78,12.52,-70.03,80.6,19.46
146,Touros,75,BR,1589596183,100,-5.2,-35.46,75.2,4.7
147,Korla,100,CN,1589596184,19,41.76,86.15,79.21,14.32
148,Avarua,75,CK,1589596184,83,-21.21,-159.78,80.6,12.75
149,Plácido de Castro,46,BR,1589596184,81,-10.34,-67.19,72.82,3.27
150,São João da Barra,100,BR,1589596184,82,-21.64,-41.05,71.1,7.2
151,San Policarpo,12,PH,1589596184,75,12.18,125.51,84.94,13.2
152,Cherskiy,0,RU,1589596184,59,68.75,161.3,44.64,6.17
153,Tiksi,100,RU,1589596184,95,71.69,128.87,33.13,13.42
154,Arlit,0,NE,1589596185,11,18.74,7.39,87.76,10.36
155,Berghin,70,RO,1589596185,67,46.07,23.73,59.0,8.05
156,Santa Catarina,88,BR,1589596185,90,-27.0,-50.0,56.52,1.28
157,Houma,90,US,1589596186,94,29.6,-90.72,75.99,8.05
158,Souillac,20,MU,1589596186,93,-20.52,57.52,66.2,5.82
159,Touho,31,NC,1589596186,68,-20.78,165.23,75.11,9.82
160,Port Blair,99,IN,1589596186,78,11.67,92.75,84.52,12.5
161,Saint Anthony,1,US,1589596186,42,45.02,-93.22,64.4,3.36
162,Panabá,0,MX,1589596187,77,21.28,-88.27,80.6,10.02
163,Meulaboh,100,ID,1589596187,74,4.14,96.13,83.16,4.56
164,Savinka,87,RU,1589596187,86,50.08,47.1,44.55,8.28
165,Arraial do Cabo,100,BR,1589596188,76,-22.97,-42.03,71.28,9.06
166,Yermakovskoye,100,RU,1589596188,46,53.28,92.4,57.16,3.38
167,Pierre,75,US,1589595964,93,44.37,-100.35,55.0,9.17
168,Novoagansk,100,RU,1589596188,87,61.94,76.66,51.33,10.0
169,Dohār,75,BD,1589596188,74,23.59,90.15,80.6,11.41
170,Taltal,0,CL,1589596189,55,-25.4,-70.48,64.53,2.3
171,North Battleford,1,CA,1589596189,26,52.78,-108.28,55.99,4.63
172,Tessalit,86,ML,1589596189,14,20.2,1.01,85.35,10.16
173,Bongor,61,TD,1589596189,31,10.28,15.37,85.48,1.39
174,College,40,US,1589596189,24,64.86,-147.8,66.2,9.17
175,Bonthe,96,SL,1589596189,88,7.53,-12.51,80.83,3.8
176,Longyearbyen,40,SJ,1589596190,64,78.22,15.64,35.6,21.92
177,Tumpat,20,MY,1589596190,84,6.2,102.17,86.0,3.36
178,Srednekolymsk,100,RU,1589596190,74,67.45,153.68,38.59,4.59
179,Gorin,48,RU,1589596190,48,51.2,136.67,52.45,12.1
180,Beringovskiy,92,RU,1589596191,96,63.05,179.32,31.8,14.56
181,San Patricio,0,MX,1589596191,73,19.22,-104.7,74.16,5.68
182,Airai,41,TL,1589596191,80,-8.93,125.41,71.13,4.99
183,Broome,90,US,1589596191,93,42.25,-75.83,62.01,11.41
184,Lorengau,100,PG,1589596161,82,-2.02,147.27,82.36,8.41
185,Cape Town,100,ZA,1589596164,100,-33.93,18.42,48.2,2.24
186,At-Bashi,100,KG,1589596191,52,41.17,75.81,52.27,1.41
187,Leningradskiy,42,RU,1589596145,95,69.38,178.42,30.07,2.44
188,Katsuura,100,JP,1589596192,93,35.13,140.3,69.01,3.0
189,Vanimo,73,PG,1589596192,62,-2.67,141.3,88.14,7.09
190,Namatanai,3,PG,1589596192,70,-3.67,152.43,86.31,9.4
191,Inhambane,0,MZ,1589596192,85,-23.86,35.38,64.99,6.26
192,Aklavik,90,CA,1589596192,79,68.22,-135.01,26.6,10.29
193,Saint-Philippe,90,RE,1589596192,60,-21.36,55.77,73.4,6.93
194,Beaverlodge,75,CA,1589596193,41,55.22,-119.44,59.0,5.82
195,Lensk,100,RU,1589596193,73,60.73,114.93,49.73,2.98
196,Kolondiéba,100,ML,1589596193,70,11.09,-6.89,79.43,8.14
197,Tuatapere,5,NZ,1589596193,64,-46.13,167.68,54.9,3.18
198,São Filipe,1,CV,1589596193,79,14.9,-24.5,73.0,7.43
199,Fortuna,1,US,1589596194,71,40.6,-124.16,61.0,10.29
200,Goderich,0,CA,1589596194,86,43.75,-81.72,46.0,11.72
201,Tegul'det,100,RU,1589596194,52,57.31,88.17,55.24,9.46
202,Benjamín Aceval,0,PY,1589596194,76,-24.97,-57.57,53.6,1.12
203,Klaksvík,93,FO,1589596194,74,62.23,-6.59,37.4,18.34
204,Kavaratti,100,IN,1589596194,83,10.57,72.64,82.15,9.48
205,Hasaki,75,JP,1589596095,82,35.73,140.83,72.0,16.11
206,Uni,100,RU,1589596194,95,57.75,51.49,43.66,7.78
207,Umri,22,IN,1589596195,19,26.51,78.94,93.7,7.63
208,Torbay,90,CA,1589596195,97,47.67,-52.73,36.0,6.93
209,Tura,0,IN,1589596195,80,25.52,90.22,79.32,5.17
210,Dali,0,CN,1589596195,48,25.7,100.18,70.63,4.79
211,Al Bardīyah,0,LY,1589596195,59,31.76,25.09,69.42,3.89
212,Pucallpa,75,PE,1589596195,78,-8.38,-74.55,75.2,4.7
213,Port Hawkesbury,1,CA,1589596196,86,45.62,-61.35,34.0,3.36
214,Quang Ngai,53,VN,1589596196,49,15.12,108.8,90.05,6.04
215,La Paz,32,BO,1589596028,40,-16.5,-68.15,35.6,8.05
216,Kruisfontein,51,ZA,1589596197,90,-34.0,24.73,51.03,9.06
217,Daru,69,PG,1589596197,77,-9.08,143.21,81.37,20.51
218,Tongren,97,CN,1589596197,74,27.72,109.19,78.82,1.12
219,Narsaq,100,GL,1589596197,60,60.92,-46.05,41.0,5.82
220,Rāvar,1,IR,1589596197,25,31.27,56.81,68.43,1.99
221,Richards Bay,38,ZA,1589596197,73,-28.78,32.04,68.2,15.68
222,Ketchikan,75,US,1589596198,54,55.34,-131.65,59.0,13.87
223,Selma,7,US,1589596115,33,36.57,-119.61,78.8,9.17
224,Bathsheba,40,BB,1589596198,78,13.22,-59.52,80.6,19.46
225,Kętrzyn,85,PL,1589596199,91,54.08,21.38,40.53,12.48
226,Saskylakh,100,RU,1589596199,98,71.92,114.08,31.39,7.96
227,Shanhecun,1,CN,1589596199,46,44.7,127.2,68.58,5.97
228,Pilar,20,BR,1589596200,88,-9.6,-35.96,77.0,2.24
229,Nanortalik,100,GL,1589596200,91,60.14,-45.24,38.17,14.12
230,Ugoofaaru,93,MV,1589596200,78,5.67,73.0,83.71,19.17
231,Laguna,1,US,1589596201,31,38.42,-121.42,78.8,6.93
232,Tarko-Sale,100,RU,1589596201,93,64.92,77.78,46.0,12.5
233,Kolpashevo,33,RU,1589596202,65,58.31,82.91,64.92,13.8
234,Peleduy,100,RU,1589596202,70,59.63,112.74,47.37,3.96
235,Pedro Carbo,75,EC,1589596202,74,-1.83,-80.23,79.0,10.29
236,Wunsiedel,0,DE,1589596202,89,50.03,12.02,37.99,1.3
237,Marau,86,BR,1589596203,74,-28.45,-52.2,44.83,1.19
238,Yangi Marg`ilon,100,UZ,1589596203,55,40.43,71.72,64.4,4.7
239,Wajima,75,JP,1589596207,77,37.4,136.9,64.4,3.36
240,Ingham,75,US,1589596208,88,42.6,-84.38,64.4,7.14
241,Kédougou,68,SN,1589596208,45,12.56,-12.17,88.63,3.24
242,Hegra,100,NO,1589596208,74,63.46,11.11,35.6,19.46
243,Yeniseysk,100,RU,1589596208,48,58.45,92.17,52.29,13.58
244,Atbasar,33,KZ,1589596209,67,51.8,68.33,63.3,12.44
245,Sinazongwe,0,ZM,1589596209,63,-17.26,27.46,63.61,4.81
246,Kotido,1,UG,1589596209,92,2.98,34.13,66.11,4.94
247,Sumbawanga,40,TZ,1589596209,100,-7.97,31.62,59.0,3.0
248,Lantawan,75,PH,1589596210,70,10.62,123.98,87.8,6.93
249,Kaitangata,3,NZ,1589596210,66,-46.28,169.85,54.59,2.21
250,Barretos,100,BR,1589596210,93,-20.56,-48.57,65.1,4.56
251,Gamba,29,GA,1589596211,95,-2.65,10.0,77.79,4.32
252,Grand Gaube,0,MU,1589596211,81,-20.01,57.66,71.01,4.0
253,Coyhaique,100,CL,1589596211,87,-45.58,-72.07,53.6,1.12
254,Boddam,100,GB,1589596212,70,57.47,-1.78,46.99,14.99
255,Mehamn,10,NO,1589596212,84,71.04,27.85,35.17,11.25
256,Muscat,0,OM,1589596198,66,23.61,58.59,86.0,4.7
257,Lhokseumawe,97,ID,1589596212,69,5.18,97.15,84.92,2.73
258,Rodrigues Alves,73,BR,1589596213,92,-7.74,-72.65,70.77,2.51
259,Guamúchil,0,MX,1589595993,66,25.47,-108.1,75.0,4.21
260,Madingou,4,CG,1589596213,91,-4.15,13.55,74.17,1.59
261,Bogotol,100,RU,1589596213,49,56.21,89.53,57.25,10.33
262,Porbandar,0,IN,1589596214,66,21.64,69.61,83.97,14.56
263,Kudahuvadhoo,100,MV,1589596214,72,2.67,72.89,84.81,19.66
264,Acapulco de Juárez,40,MX,1589596036,74,16.86,-99.89,82.4,8.05
265,Lüderitz,0,NA,1589596214,82,-26.65,15.16,55.4,6.93
266,Aksu,100,CN,1589596214,24,41.12,80.26,77.18,11.54
267,Horta,99,PT,1589596215,88,38.53,-28.63,63.84,11.97
268,Dingle,65,PH,1589596215,53,11.0,122.67,91.83,5.26
269,Nakatunguru,20,TZ,1589596215,88,-2.12,33.07,68.0,5.82
270,Campoverde,75,PE,1589596216,78,-8.48,-74.81,75.2,4.7
271,Oriximiná,13,BR,1589596216,89,-1.77,-55.87,76.51,2.35
272,Plettenberg Bay,90,ZA,1589596216,78,-34.05,23.37,55.4,5.97
273,Sungai Penuh,99,ID,1589595946,75,-2.08,101.38,76.64,2.3
274,Kopavogur,0,IS,1589596216,51,64.11,-21.91,35.6,8.05
275,Muzhi,41,RU,1589596116,79,65.37,64.67,36.82,17.0
276,Severodvinsk,40,RU,1589596217,93,64.56,39.83,35.6,2.24
277,Chabahar,5,IR,1589596217,79,25.29,60.64,82.81,6.38
278,Constitución,4,CL,1589596217,86,-35.33,-72.42,59.43,8.61
279,Luganville,90,VU,1589596218,69,-15.53,167.17,82.4,8.05
280,Alice Springs,0,AU,1589596218,27,-23.7,133.88,62.6,12.75
281,Kilgore,20,US,1589596218,83,32.39,-94.88,75.2,3.36
282,Kasongo-Lunda,0,CD,1589596219,75,-6.47,16.82,67.59,1.32
283,Ust-Maya,0,RU,1589596219,29,60.42,134.53,63.97,4.94
284,Haysville,20,US,1589595920,68,37.56,-97.35,70.0,12.75
285,Kropotkin,33,RU,1589596220,86,45.44,40.58,56.86,6.69
286,Saint George,1,US,1589596005,14,37.1,-113.58,84.2,9.17
287,Barcelos,2,PT,1589596220,72,41.54,-8.62,60.8,5.82
288,Cidreira,74,BR,1589596182,72,-30.18,-50.21,55.08,8.14
289,Mayo,1,US,1589596220,57,38.89,-76.51,77.0,6.93
290,Angoche,11,MZ,1589596221,79,-16.23,39.91,71.15,9.69
291,Cayenne,75,GF,1589595938,100,4.93,-52.33,75.2,2.24
292,Itoman,75,JP,1589596222,88,26.12,127.67,84.0,12.75
293,Kimbe,71,PG,1589596222,76,-5.55,150.14,86.18,2.24
294,Pimentel,62,PE,1589596222,87,-6.84,-79.93,67.71,12.68
295,Yenagoa,56,NG,1589596222,92,4.92,6.26,75.67,1.77
296,Tombouctou,82,ML,1589596222,17,20.0,-3.0,81.82,10.83
297,Sawākin,37,SD,1589596222,60,19.11,37.33,83.52,7.43
298,Arroyo de la Encomienda,53,ES,1589596223,87,41.61,-4.8,46.0,13.87
299,Fairbanks,1,US,1589596041,24,64.84,-147.72,66.2,10.29
300,Kargasok,32,RU,1589596225,69,59.06,80.86,61.75,13.58
301,Ankara,90,TR,1589596225,71,39.92,32.85,57.2,2.71
302,Highland,5,US,1589596160,34,34.13,-117.21,80.6,11.41
303,Iracoubo,100,GF,1589596225,91,5.48,-53.2,76.71,6.4
304,Moose Factory,90,CA,1589596225,86,51.26,-80.61,39.2,2.24
305,Huntington,90,US,1589596225,88,38.42,-82.45,69.01,6.93
306,Wanning,0,CN,1589596225,61,18.8,110.4,89.29,12.84
307,Zyryanka,98,RU,1589596226,84,65.75,150.85,34.99,11.3
308,Khasan,99,RU,1589596227,89,42.43,130.64,49.21,7.02
309,Auki,39,SB,1589596227,78,-8.77,160.7,83.43,2.08
310,Miraflores,40,MX,1589596227,25,19.22,-98.81,75.2,9.17
311,Vinces,75,EC,1589596227,74,-1.55,-79.73,78.8,10.29
312,Chistogorskiy,100,RU,1589596227,91,53.98,87.38,56.14,3.94
313,Bokhan,0,RU,1589596227,45,53.15,103.77,49.84,13.65
314,Ambilobe,0,MG,1589596227,94,-13.2,49.05,70.54,2.24
315,Arshan',91,RU,1589596228,81,46.27,44.22,51.8,13.42
316,Ekhabi,100,RU,1589596228,96,53.51,142.97,33.94,10.54
317,Mongo,17,TD,1589596228,16,12.18,18.69,79.27,1.43
318,Nemuro,75,JP,1589596228,71,43.32,145.57,50.0,17.22
319,Diébougou,84,BF,1589596228,73,10.97,-3.25,79.9,5.12
320,Mililani Town,75,US,1589596229,54,21.45,-158.0,84.2,6.93
321,Henties Bay,0,NA,1589596229,72,-22.12,14.28,60.57,4.56
322,Haisyn,98,UA,1589596229,93,48.81,29.39,44.85,9.51
323,Tsabong,0,BW,1589596229,35,-26.02,22.4,57.6,9.06
324,Hambantota,100,LK,1589596229,84,6.12,81.12,80.96,22.26
325,Hong Kong,10,HK,1589595956,75,22.29,114.16,89.01,8.99
326,Sadovoye,76,RU,1589596229,66,47.78,44.51,51.89,6.6
327,Nampula,38,MZ,1589596230,93,-15.12,39.27,64.4,8.05
328,Camacha,40,PT,1589596230,48,33.08,-16.33,62.6,18.34
329,San Jerónimo,65,PE,1589596230,73,-11.95,-75.28,46.67,1.21
330,Cabatuan,76,PH,1589596230,54,10.88,122.49,91.63,5.14
331,Albert Lea,1,US,1589596231,51,43.65,-93.37,64.4,7.05
332,Kenai,1,US,1589596231,34,60.55,-151.26,64.4,12.75
333,Northam,94,GB,1589596231,85,51.03,-4.22,48.0,4.0
334,San Jose,75,US,1589596112,42,37.34,-121.89,69.01,16.11
335,Esperance,90,AU,1589596231,63,-33.87,121.9,62.6,13.87
336,Esim,17,GH,1589596231,87,4.87,-2.24,80.4,6.71
337,Antofagasta,90,CL,1589595984,82,-23.65,-70.4,59.0,2.24
338,Abu Kamal,0,SY,1589596232,20,34.45,40.92,78.84,5.79
339,Upernavik,100,GL,1589596232,98,72.79,-56.15,31.51,13.11
340,Great Yarmouth,42,GB,1589596232,89,52.61,1.73,45.0,15.12
341,Nongpoh,90,IN,1589596232,94,25.9,91.88,77.0,4.7
342,Kalmunai,100,LK,1589596232,76,7.42,81.82,81.81,5.23
343,Nome,90,US,1589596233,34,64.5,-165.41,60.01,8.05
344,Maun,0,BW,1589596233,31,-19.98,23.42,60.8,3.36
345,Samaná,0,DO,1589596233,85,19.21,-69.34,76.08,6.82
346,Petropavlovsk-Kamchatskiy,75,RU,1589596233,73,53.05,158.65,46.4,8.95
347,Lavrentiya,5,RU,1589596233,87,65.58,-171.0,34.56,10.4
348,Beira,0,MZ,1589596233,100,-19.84,34.84,64.4,5.82
349,Rio Grande,2,BR,1589596140,93,-32.03,-52.1,46.99,11.81
350,Ponta do Sol,75,PT,1589596235,55,32.67,-17.1,62.6,16.11
351,Coquimbo,0,CL,1589596235,81,-29.95,-71.34,53.6,3.36
352,Seoul,90,KR,1589596187,93,37.57,126.98,64.4,1.12
353,Codrington,0,AU,1589596235,50,-38.27,141.97,58.66,10.96
354,Birao,83,CF,1589596235,58,10.28,22.79,81.9,7.76
355,Fort Nelson,40,CA,1589596235,51,58.81,-122.7,57.2,9.17
356,Iquitos,40,PE,1589596236,94,-3.75,-73.25,75.2,2.24
357,Bowen,40,AU,1589596236,53,-20.02,148.23,79.0,21.92
358,Zhalantun,0,CN,1589596236,37,48.0,122.72,70.34,14.32
359,San Cristobal,34,VE,1589596236,89,7.77,-72.22,66.67,3.56
360,Victoria Point,27,AU,1589596236,58,-27.58,153.3,75.99,7.0
361,Soyo,14,AO,1589596237,91,-6.13,12.37,78.12,4.65
362,Broken Hill,0,AU,1589596237,45,-31.95,141.43,62.6,6.93
363,The Valley,75,AI,1589596237,69,18.22,-63.06,82.4,14.99
364,Carnarvon,0,AU,1589596238,19,-24.87,113.63,80.55,10.2
365,Sumbe,11,AO,1589596238,76,-11.21,13.84,76.15,3.27
366,San Quintín,10,MX,1589596238,82,30.48,-115.95,64.17,16.08
367,Sulechów,23,PL,1589596239,42,52.08,15.63,44.01,7.27
368,Evanston,75,US,1589595940,63,42.04,-87.69,66.2,5.82
369,Mae Hong Son,20,TH,1589596239,62,19.3,97.97,87.8,2.24
370,Kitaibaraki,100,JP,1589596239,73,36.78,140.75,69.01,15.12
371,Mareeba,75,AU,1589596059,58,-17.0,145.43,82.4,17.22
372,Beyşehir,0,TR,1589596239,50,37.68,31.72,63.79,1.7
373,Xylaganí,100,GR,1589596239,77,40.98,25.42,64.99,1.99
374,Epe,65,NG,1589596240,91,6.58,3.98,78.94,2.86
375,Constantine,75,DZ,1589596240,55,36.37,6.61,62.6,2.24
376,Ţaga,40,RO,1589596240,76,46.95,24.05,50.0,5.82
377,Tabas,0,IR,1589596240,19,33.6,56.92,76.12,3.02
378,Porto-Novo,40,BJ,1589596240,83,6.5,2.6,84.2,11.41
379,Kondopoga,0,RU,1589596240,85,62.21,34.26,32.0,2.51
380,Minas,0,UY,1589596240,59,-34.38,-55.24,61.0,17.22
381,Pinhão,12,BR,1589596241,97,-25.7,-51.66,48.58,1.21
382,Burley,20,US,1589596241,33,42.54,-113.79,57.2,12.75
383,Usvyaty,55,RU,1589596241,76,55.75,30.75,40.51,8.48
384,Paamiut,79,GL,1589596073,89,61.99,-49.67,38.7,13.47
385,Xiuyan,99,CN,1589596241,74,40.29,123.27,63.34,6.58
386,Bandarbeyla,0,SO,1589596242,81,9.49,50.81,82.92,19.35
387,Ullapool,96,GB,1589596242,85,57.9,-5.16,46.0,4.0
388,Havre-St-Pierre,1,CA,1589596242,80,50.23,-63.6,35.6,2.24
389,Slave Lake,1,CA,1589596242,65,55.28,-114.77,44.6,0.49
390,Oussouye,0,SN,1589596243,88,12.48,-16.55,75.2,4.7
391,Avera,40,US,1589596243,69,33.19,-82.53,73.4,8.05
392,Gongzhuling,5,CN,1589595951,54,43.5,124.82,66.4,5.95
393,Ulladulla,75,AU,1589596243,68,-35.35,150.47,64.4,6.55
394,Qaqortoq,100,GL,1589596144,60,60.72,-46.03,41.0,5.82
395,Lincoln,1,US,1589596243,48,40.8,-96.67,66.99,4.7
396,San Miguel de Tucumán,0,AR,1589596243,87,-26.82,-65.22,51.8,6.93
397,Saint-Pierre,90,RE,1589596243,60,-21.34,55.48,73.4,6.93
398,Aripuanã,83,BR,1589596244,98,-9.17,-60.63,72.55,2.37
399,Churapcha,0,RU,1589596244,30,62.0,132.43,63.27,1.39
400,San Andrés,20,CO,1589595975,79,12.58,-81.7,84.2,5.82
401,Okha,100,RU,1589596244,96,53.57,142.95,33.73,11.16
402,Tilichiki,94,RU,1589596245,88,60.47,166.1,37.26,8.1
403,Half Moon Bay,1,US,1589596048,87,37.46,-122.43,66.0,11.41
404,Aksaray,0,TR,1589596245,51,38.37,34.03,63.86,1.59
405,Buraidah,100,SA,1589596245,38,26.33,43.98,75.2,3.98
406,Baoying,30,CN,1589596245,53,33.23,119.31,80.89,4.29
407,Abhā,40,SA,1589596245,67,18.22,42.51,64.4,10.29
408,Hamilton,1,US,1589596014,93,39.18,-84.53,66.99,2.35
409,Anadyr,8,RU,1589596246,52,64.75,177.48,42.8,8.95
410,Lujiang,0,CN,1589596246,88,31.26,117.28,78.01,4.47
411,Murakami,75,JP,1589596246,72,38.23,139.48,66.2,8.05
412,Kamenka,74,RU,1589596246,93,51.32,42.77,39.99,0.96
413,Sur,0,OM,1589596247,69,22.57,59.53,81.07,6.69
414,Karratha,0,AU,1589596248,15,-20.74,116.85,82.85,19.89
415,Vanavara,0,RU,1589596248,45,60.34,102.28,49.26,3.91
416,Gorom-Gorom,49,BF,1589596249,29,14.44,-0.24,93.72,11.56
417,Nizhnyaya Omka,100,RU,1589596249,73,55.43,74.94,60.84,15.19
418,Tezu,51,IN,1589596249,39,27.92,96.17,88.36,4.32
419,Sioux Lookout,75,CA,1589596037,71,50.1,-91.92,50.0,2.24
420,Concepción del Oro,2,MX,1589596249,22,24.63,-101.42,68.18,3.49
421,Beloha,3,MG,1589596249,90,-25.17,45.05,58.75,3.74
422,Honningsvåg,0,NO,1589596250,76,70.98,25.97,38.14,15.73
423,Namikupa,0,TZ,1589596250,96,-10.83,39.6,62.91,3.04
424,Jalu,0,LY,1589596250,28,29.03,21.55,72.91,7.9
425,Vangaindrano,2,MG,1589596250,91,-23.35,47.6,64.38,2.91
426,Port-Gentil,100,GA,1589596250,79,-0.72,8.78,82.81,9.95
427,Oranjemund,0,NA,1589596251,84,-28.55,16.43,54.55,7.07
428,Norman Wells,90,CA,1589596251,86,65.28,-126.83,33.8,19.46
429,Romny,100,UA,1589596251,92,50.75,33.47,45.81,4.18
430,Bilma,0,NE,1589596251,15,18.69,12.92,77.74,2.26
431,Dhārchula,0,IN,1589596251,28,29.85,80.53,77.9,1.3
432,Palembang,75,ID,1589596252,83,-2.92,104.75,84.2,4.7
433,Santa Rosa,40,PH,1589596146,66,14.31,121.11,93.0,2.24
434,Chardara,100,KZ,1589596252,55,41.25,67.97,66.79,7.02
435,Koutsouras,0,GR,1589596252,23,35.03,25.95,79.0,5.01
436,Faanui,0,PF,1589596252,73,-16.48,-151.75,82.85,7.25
437,Timrå,100,SE,1589596252,79,62.49,17.33,32.0,5.82
438,Iranshahr,50,IR,1589596253,15,27.2,60.68,78.8,4.7
439,Paragominas,100,BR,1589596253,98,-2.97,-47.48,73.67,1.9
440,Port Hedland,0,AU,1589596253,7,-20.32,118.57,84.2,21.92
441,Øksfjord,93,NO,1589596253,55,70.24,22.35,35.6,5.82
442,Batagay-Alyta,100,RU,1589596253,85,67.8,130.41,36.72,4.54
443,Salinas,1,US,1589596253,59,36.68,-121.66,62.6,12.75
444,Waipawa,89,NZ,1589596254,82,-41.41,175.52,55.4,18.34
445,Cururupu,63,BR,1589596254,96,-1.83,-44.87,75.15,2.59
446,Rongcheng,8,CN,1589596254,96,30.63,117.85,77.0,5.21
447,Lazo,100,RU,1589596240,84,43.38,133.9,52.05,1.34
448,Sitka,75,US,1589596255,71,57.05,-135.33,53.6,9.17
449,Ust-Nera,95,RU,1589596255,55,64.57,143.2,46.63,7.25
450,Durban,0,ZA,1589596245,55,-29.86,31.03,64.99,13.87
451,Havelock,1,US,1589596255,73,34.88,-76.9,72.0,4.7
452,Champerico,78,GT,1589596255,71,14.3,-91.92,85.01,2.73
453,Severnyy,75,RU,1589596255,87,50.68,36.55,42.8,4.47
454,Samarai,52,PG,1589596256,78,-10.62,150.67,79.93,17.67
455,Bira,0,RU,1589596256,24,49.0,132.47,74.32,3.91
456,Krasnosel'kup,100,RU,1589596256,92,65.7,82.47,46.69,19.24
457,Garhi Khairo,3,PK,1589596257,17,28.06,67.98,94.48,5.55
458,Thaba Nchu,0,ZA,1589596257,80,-29.21,26.84,33.8,3.36
459,Port Lincoln,0,AU,1589596257,42,-34.73,135.87,61.83,7.49
460,Moindou,75,NC,1589596257,78,-21.69,165.68,73.4,20.8
461,Presidente Epitácio,18,BR,1589596257,93,-21.76,-52.12,62.28,4.83
462,Joshīmath,0,IN,1589596257,26,30.57,79.57,66.58,1.95
463,Santa Cruz de la Sierra,78,BO,1589596258,82,-17.8,-63.17,60.8,6.93
464,Andenes,98,NO,1589596258,64,69.31,16.12,37.4,17.22
465,Sakakah,99,SA,1589596258,12,29.97,40.21,80.6,4.7
466,Kiama,75,AU,1589596258,68,-34.68,150.87,64.99,4.61
467,Bongaree,86,AU,1589596043,59,-27.08,153.16,73.99,4.0
468,Chingirlau,41,KZ,1589596258,81,51.09,54.08,53.89,14.79
469,Mikun',100,RU,1589596258,88,62.35,50.08,39.83,5.59
470,Florianópolis,27,BR,1589596259,77,-27.61,-48.5,64.0,9.17
471,Cascais,0,PT,1589596259,93,38.7,-9.42,61.0,8.28
472,Kandalaksha,89,RU,1589596259,94,67.16,32.41,32.14,2.08
473,Oistins,40,BB,1589596259,78,13.07,-59.53,80.6,19.46
474,Ouro Sogui,0,SN,1589596259,16,15.61,-13.32,85.73,9.62
475,Tual,3,ID,1589596260,80,-5.67,132.75,83.98,18.28
476,Roebourne,0,AU,1589596260,15,-20.78,117.13,82.36,19.37
477,Suntar,100,RU,1589596260,42,62.14,117.63,59.54,2.91
478,Tupiza,0,BO,1589596260,51,-21.45,-65.72,48.09,1.45
479,Amberg,90,DE,1589596260,93,49.44,11.86,42.8,1.72
480,Bailieborough,100,IE,1589596260,96,53.92,-6.97,38.95,4.52
481,Esil,2,KZ,1589596261,65,51.96,66.4,62.96,10.29
482,Holod,87,RO,1589596261,87,46.78,22.13,45.0,4.7
483,Virginia Beach,1,US,1589596179,68,36.85,-75.98,72.0,12.75
484,Millerovo,100,RU,1589596261,73,48.92,40.4,49.17,7.31
485,Jaen,100,ES,1589596261,84,38.0,-3.5,55.0,3.0
486,Galle,100,LK,1589596262,90,6.04,80.22,79.83,12.66
487,Sulayman,0,IQ,1589596262,19,31.4,46.29,83.95,7.16
488,Manitouwadge,18,CA,1589596262,83,49.12,-85.84,42.48,3.22
489,Nongstoin,1,IN,1589596262,66,25.52,91.27,72.59,4.94
490,Port-Cartier,75,CA,1589596262,60,50.03,-66.87,43.0,5.82
491,Helong,95,CN,1589596262,70,42.54,129.0,61.14,2.68
492,Tiznit Province,65,MA,1589596262,90,29.58,-9.5,55.38,10.33
493,Verāval,1,IN,1589596262,71,20.9,70.37,83.43,15.37
494,Sydney Mines,20,CA,1589596262,86,46.24,-60.22,37.0,6.93
495,Beipiao,85,CN,1589596263,51,41.79,120.78,70.05,13.4
496,Manta,40,EC,1589596263,83,-0.95,-80.73,77.0,8.05
497,Assiut,15,EG,1589596263,57,27.18,31.18,77.0,4.7
498,Arzachena,100,IT,1589596263,88,41.08,9.39,62.6,16.11
499,Abrau-Dyurso,27,RU,1589596263,46,44.69,37.59,69.8,15.66
500,Xining,0,CN,1589596263,31,36.62,101.77,60.94,3.22
501,Beeville,75,US,1589596264,88,28.4,-97.75,80.6,9.17
502,Marinette,1,US,1589596097,81,45.1,-87.63,51.8,14.99
503,Varhaug,90,NO,1589596264,80,58.61,5.65,41.0,14.99
504,Nouadhibou,0,MR,1589596264,72,20.93,-17.03,66.2,23.04
505,Belaya Gora,0,RU,1589596264,58,68.53,146.42,43.99,8.01
506,Cam Ranh,20,VN,1589596264,66,11.92,109.16,91.4,4.7
507,Manggar,69,ID,1589596264,79,-2.88,108.27,84.78,11.77
508,Fukuechō,75,JP,1589596255,88,32.69,128.84,75.2,4.7
509,Oktyabr'skiy,93,RU,1589596264,85,54.48,53.47,47.7,13.2
510,Nadym,100,RU,1589596264,87,65.53,72.52,42.35,9.33
511,Melendugno,40,IT,1589596264,87,40.27,18.34,60.8,3.6
512,Camargo,0,MX,1589596265,17,27.67,-105.17,74.28,2.91
513,Córdoba,0,AR,1589596142,71,-31.41,-64.18,60.01,5.82
514,Tottori-shi,75,JP,1589596161,88,35.5,134.23,62.6,16.11
515,Nichinan,75,JP,1589596265,94,31.6,131.37,69.8,5.82
516,Challans,3,FR,1589596265,75,46.84,-1.87,46.4,6.93
517,Pisco,90,PE,1589596133,88,-13.7,-76.22,66.2,8.05
518,Cedar City,1,US,1589596086,26,37.68,-113.06,69.8,9.17
519,Ribeirão Branco,0,BR,1589596266,97,-24.22,-48.77,51.44,0.43
520,Ruwi,0,OM,1589596266,66,23.6,58.55,86.0,4.7
521,Severo-Yeniseyskiy,86,RU,1589596266,45,60.37,93.04,51.58,12.93
522,Tokat,43,TR,1589596266,64,40.42,36.58,58.6,4.72
523,Hualmay,9,PE,1589596266,85,-11.1,-77.61,65.16,6.04
524,Ladário,91,BR,1589596266,59,-19.0,-57.6,61.34,3.47
525,Aldan,24,RU,1589596266,47,58.6,125.39,53.55,5.14
526,Lac du Bonnet,75,CA,1589596266,71,50.25,-96.06,45.0,4.68
527,Atherton,100,GB,1589596266,91,53.52,-2.49,45.0,4.85
528,Banjar,75,ID,1589596267,94,-8.19,114.97,84.2,18.34
529,Haines Junction,59,CA,1589596267,40,60.75,-137.51,57.42,6.02
530,Salihorsk,39,BY,1589596267,84,52.79,27.54,40.59,6.38
531,Ballina,75,AU,1589596267,88,-28.87,153.57,66.2,9.17
532,Sangar,0,RU,1589596267,46,63.92,127.47,58.96,5.1
533,Omboué,100,GA,1589596267,92,-1.57,9.26,78.13,6.15
534,Muleba,20,TZ,1589596267,83,-1.84,31.65,69.8,7.16
535,Ranong,20,TH,1589596268,79,9.97,98.63,87.8,2.24
536,Dawlatabad,55,AF,1589596268,39,36.41,64.91,69.6,1.77
537,Boca do Acre,44,BR,1589596268,92,-8.75,-67.4,71.73,1.5
538,Bandar-e Anzali,90,IR,1589596268,100,37.47,49.46,64.4,2.24
539,Pravda,75,RU,1589596268,93,46.94,142.01,41.0,4.47
540,Dicabisagan,100,PH,1589596268,84,17.08,122.42,81.39,14.81
541,Berezovyy,53,RU,1589596268,47,51.67,135.7,52.83,9.82
542,Methóni,4,GR,1589596268,51,36.82,21.7,73.99,7.45
543,Adamantas,0,GR,1589596268,28,36.73,24.43,71.6,2.24
544,Husavik,20,IS,1589596269,92,66.04,-17.34,28.4,10.29
545,Williams Lake,75,CA,1589596122,76,52.14,-122.14,53.6,5.82
546,Conde,75,BR,1589596269,100,-7.26,-34.91,75.2,3.36
547,Chelno-Vershiny,100,RU,1589596269,87,54.43,51.1,43.07,15.08
548,Nsanje,0,MW,1589596269,95,-16.92,35.26,60.91,1.07
549,Kilindoni,13,TZ,1589596269,79,-7.91,39.67,78.53,12.62
550,Padang,92,ID,1589596270,65,-0.95,100.35,87.46,3.18
